[
  {
    "id": 1,
    "name": "AAMUSTED Library",
    "shortName": "Library",
    "type": "academic",
    "lat": 6.698214641331196,
    "lng": -1.681806442412917,
    "description": "Main campus library with reading rooms, digital resources and WiFi access.",
    "hours": "7:00 AM – 10:00 PM"
  },
  {
    "id": 2,
    "name": "The Clinic",
    "shortName": "Clinic",
    "type": "facility",
    "lat": 6.697511370968863,
    "lng": -1.6797035905724758,
    "description": "Campus health facility for primary care, first aid and pharmacy services.",
    "contact": "clinic@aamusted.edu.gh",
    "hours": "7:00 AM – 10:00 PM"
  },
  {
    "id": 3,
    "name": "Atwima Hall",
    "shortName": "Atwima Hall",
    "type": "hostel",
    "lat": 6.696882689029287,
    "lng": -1.6795104715259046,
    "description": "Student residential hall with study rooms and recreational facilities.",
    "hours": "24 hours"
  },
  {
    "id": 4,
    "name": "UBS",
    "shortName": "UBS",
    "type": "facility",
    "lat": 6.6968720333951754,
    "lng": -1.676838991370415,
    "description": "University Banking Services on campus for student and staff financial transactions.",
    "hours": "8:30 AM – 4:30 PM"
  },
  {
    "id": 5,
    "name": "New Auditorium",
    "shortName": "Auditorium",
    "type": "academic",
    "lat": 6.698022840441925,
    "lng": -1.6801327440054108,
    "description": "Large campus auditorium for convocations, events and large gatherings.",
    "hours": "By schedule"
  },
  {
    "id": 6,
    "name": "The Mosque",
    "shortName": "Mosque",
    "type": "facility",
    "lat": 6.6979695624006785,
    "lng": -1.68387710774935,
    "description": "Campus mosque for Islamic worship and community activities.",
    "hours": "Open for prayer times"
  },
  {
    "id": 7,
    "name": "New Library",
    "shortName": "New Library",
    "type": "academic",
    "lat": 6.700420346407515,
    "lng": -1.6812914582753884,
    "description": "Newly built library facility with expanded study spaces, digital resources and research support.",
    "hours": "7:00 AM – 10:00 PM"
  },
  {
    "id": 8,
    "name": "Mechanical Workshop",
    "shortName": "Mech. Workshop",
    "type": "academic",
    "lat": 6.700207235247202,
    "lng": -1.6795533868562482,
    "description": "Workshop facility for mechanical engineering practical sessions and projects.",
    "hours": "8:00 AM – 5:00 PM"
  },
  {
    "id": 9,
    "name": "AAMUSTED Football Field",
    "shortName": "Football Field",
    "type": "facility",
    "lat": 6.701294101191554,
    "lng": -1.6783088418947358,
    "description": "Main campus football field for sports events, training and recreational activities.",
    "hours": "6:00 AM – 8:00 PM"
  },
  {
    "id": 10,
    "name": "Department of Management",
    "shortName": "Management Dept.",
    "type": "academic",
    "lat": 6.700835912907712,
    "lng": -1.6822355958550224,
    "description": "Department handling management and business-related academic programmes.",
    "contact": "management@aamusted.edu.gh",
    "hours": "8:00 AM – 5:00 PM"
  },
  {
    "id": 11,
    "name": "Opoku Ware Hall",
    "shortName": "OW Hall",
    "type": "hostel",
    "lat": 6.69784309227766,
    "lng": -1.682883903599286,
    "description": "Student residential hall with study rooms and recreational facilities.",
    "hours": "24 hours"
  },
  {
    "id": 12,
    "name": "T.L. Block",
    "shortName": "TL Block",
    "type": "academic",
    "lat": 6.697613364917664,
    "lng": -1.6816374522668014,
    "description": "Teaching and Learning Block housing lecture halls and tutorial rooms.",
    "hours": "7:00 AM – 6:00 PM"
  },
  {
    "id": 13,
    "name": "Faculty of Technical Education",
    "shortName": "FTE",
    "type": "faculty",
    "lat": 6.698322933659775,
    "lng": -1.6799795734995073,
    "description": "Mechanical, electrical, automotive and construction technology programmes.",
    "contact": "fte@aamusted.edu.gh",
    "hours": "8:00 AM – 5:00 PM"
  },
  {
    "id": 14,
    "name": "Catering and Hospitality Lab",
    "shortName": "Catering Lab",
    "type": "academic",
    "lat": 6.700230295041086,
    "lng": -1.6805827904715855,
    "description": "Laboratory and training facility for catering, hospitality and food service programmes.",
    "hours": "8:00 AM – 5:00 PM"
  },
  {
    "id": 15,
    "name": "Fashion and Textiles Lab",
    "shortName": "Fashion Lab",
    "type": "academic",
    "lat": 6.700211615966025,
    "lng": -1.6803445617984518,
    "description": "Laboratory for fashion design, textiles and clothing technology programmes.",
    "hours": "8:00 AM – 5:00 PM"
  },
  {
    "id": 16,
    "name": "Mechanical Workshop (Annex)",
    "shortName": "Mech. Annex",
    "type": "academic",
    "lat": 6.700329916761255,
    "lng": -1.6796612216432647,
    "description": "Additional mechanical workshop facility for technology and engineering practicals.",
    "hours": "8:00 AM – 5:00 PM"
  },
  {
    "id": 17,
    "name": "AAMUSTED Automotive Workshop",
    "shortName": "Auto Workshop",
    "type": "academic",
    "lat": 6.700101616952657,
    "lng": -1.6790740088612417,
    "description": "Automotive engineering workshop for vehicle maintenance, repair and hands-on training.",
    "hours": "8:00 AM – 5:00 PM"
  },
  {
    "id": 18,
    "name": "Woodlab Workshop",
    "shortName": "Woodlab",
    "type": "academic",
    "lat": 6.700175380605054,
    "lng": -1.6781519814855566,
    "description": "Woodwork laboratory and workshop for construction technology and carpentry students.",
    "hours": "8:00 AM – 5:00 PM"
  },
  {
    "id": 19,
    "name": "MYND FM",
    "shortName": "MYND FM",
    "type": "facility",
    "lat": 6.700420458458023,
    "lng": -1.6766338511797239,
    "description": "Campus radio station broadcasting news, entertainment and educational content.",
    "hours": "On-air hours vary"
  },
  {
    "id": 20,
    "name": "St. Williams Chaplaincy",
    "shortName": "Chaplaincy",
    "type": "facility",
    "lat": 6.701922889520137,
    "lng": -1.6769718095177195,
    "description": "Campus chaplaincy centre for Christian worship, counselling and spiritual activities.",
    "hours": "By schedule"
  },
  {
    "id": 21,
    "name": "ESA Building",
    "shortName": "ESA",
    "type": "academic",
    "lat": 6.701263320240392,
    "lng": -1.6831062195613589,
    "description": "ESA Building housing academic departments and offices.",
    "hours": "8:00 AM – 5:00 PM"
  },
  {
    "id": 22,
    "name": "NFB",
    "shortName": "NFB",
    "type": "academic",
    "lat": 6.701497409024071,
    "lng": -1.6836742245585143,
    "description": "New Faculty Building with lecture halls, seminar rooms and department offices.",
    "hours": "7:00 AM – 6:00 PM"
  },
  {
    "id": 23,
    "name": "NLB",
    "shortName": "NLB",
    "type": "academic",
    "lat": 6.702039508930884,
    "lng": -1.6833389484263725,
    "description": "New Lecture Building providing modern lecture halls and academic spaces.",
    "hours": "7:00 AM – 6:00 PM"
  },
  {
    "id": 24,
    "name": "Department of Economics Education",
    "shortName": "Economics Dept.",
    "type": "academic",
    "lat": 6.700396761583695,
    "lng": -1.6824193407928505,
    "description": "Department offering economics education and business studies programmes.",
    "contact": "economics@aamusted.edu.gh",
    "hours": "8:00 AM – 5:00 PM"
  },
  {
    "id": 25,
    "name": "ROB",
    "shortName": "ROB",
    "type": "academic",
    "lat": 6.700458972619646,
    "lng": -1.6820753764509622,
    "description": "Registry and Office Block containing key administrative and student services offices.",
    "hours": "8:00 AM – 5:00 PM"
  }
]